,City,Latitude,Longitude,Max Temperature,Humidity,Cloudiness,Wind Speed,Country,Date
0,Puerto Ayora,-0.7393,-90.3518,73.99,92,25,3.0,EC,1610251685
1,Upernavik,72.7868,-56.1549,10.47,83,96,8.99,GL,1610251854
2,Leiyang,26.4024,112.8591,43.83,55,99,5.53,CN,1610252034
3,Ushuaia,-54.8,-68.3,44.6,87,20,16.11,AR,1610251823
4,Bluff,-46.6,168.3333,64.0,70,93,23.0,NZ,1610251874
5,Arona,28.0996,-16.681,57.2,67,20,6.91,ES,1610252118
6,Puerto Escondido,15.85,-97.0667,75.16,82,37,0.78,MX,1610252119
7,Airai,-8.9266,125.4092,74.5,87,95,1.68,TL,1610251947
8,Saint-Philippe,-21.3585,55.7679,80.6,54,90,2.3,RE,1610252168
9,Iralaya,15.0,-83.2333,76.06,85,44,12.75,HN,1610252169
10,Pandan,14.0453,124.1694,75.04,86,100,22.95,PH,1610252170
11,East London,-33.0153,27.9116,69.8,83,0,9.22,ZA,1610252172
12,Hobyo,5.3505,48.5268,75.06,72,0,22.41,SO,1610252173
13,Mahébourg,-20.4081,57.7,80.6,83,75,9.22,MU,1610251991
14,Nanortalik,60.1432,-45.2371,31.95,92,100,8.5,GL,1610252175
15,Saint Paul Harbor,57.79,-152.4072,37.4,87,90,27.63,US,1610251684
16,Albany,42.6001,-73.9662,26.01,56,83,3.0,US,1610251920
17,Vytegra,61.0064,36.4481,-6.63,91,64,3.96,RU,1610252179
18,Hermanus,-34.4187,19.2345,62.01,94,100,12.17,ZA,1610252181
19,Mossamedes,-15.1961,12.1522,70.72,72,93,4.47,AO,1610252182
20,Rikitea,-23.1203,-134.9692,78.76,76,100,14.65,PF,1610252183
21,Baharly,38.4362,57.4316,39.88,58,0,3.96,TM,1610252185
22,Mana,5.6592,-53.7767,77.23,87,100,13.2,GF,1610252186
23,Thompson,55.7435,-97.8558,6.8,85,1,3.44,CA,1610252187
24,Włodawa,51.55,23.55,28.99,100,100,8.14,PL,1610252188
25,Sasso Marconi,44.3995,11.2495,36.0,87,75,6.91,IT,1610252190
26,Hobart,-42.8794,147.3294,75.99,60,75,17.27,AU,1610252191
27,Kingsville,27.5159,-97.8561,57.2,71,90,11.5,US,1610252189
28,Mehamn,71.0357,27.8492,15.28,94,17,18.25,NO,1610252194
29,Butaritari,3.0707,172.7902,80.46,82,100,18.92,KI,1610252195
30,Hilo,19.7297,-155.09,75.2,69,75,9.22,US,1610252197
31,Kavieng,-2.5744,150.7967,85.55,69,98,6.98,PG,1610252198
32,Busselton,-33.65,115.3333,73.0,62,97,7.0,AU,1610252199
33,Vyartsilya,62.1764,30.693,3.24,92,94,4.43,RU,1610252200
34,Te Anau,-45.4167,167.7167,58.5,64,77,7.96,NZ,1610252202
35,Bauchi,10.5,10.0,63.99,28,22,3.11,NG,1610252203
36,Lubao,14.9167,120.55,82.4,54,75,11.5,PH,1610252204
37,Ylivieska,64.0833,24.55,14.0,92,75,11.99,FI,1610252206
38,Mitú,1.1983,-70.1733,70.02,98,93,1.14,CO,1610252207
39,Cairns,-16.9167,145.7667,81.0,100,75,1.14,AU,1610252208
40,Faanui,-16.4833,-151.75,81.5,69,27,9.31,PF,1610252209
41,Yangi Marg`ilon,40.4272,71.7189,19.4,68,0,1.14,UZ,1610252211
42,Chui,-33.6971,-53.4616,65.93,87,14,6.76,UY,1610252212
43,Sitka,57.0531,-135.33,44.6,57,90,23.02,US,1610252214
44,Geretsried,47.8578,11.4805,23.0,93,90,1.14,DE,1610252215
45,Nikolskoye,59.7035,30.7861,6.01,85,0,2.24,RU,1610251685
46,Lubyany,56.0378,51.4,19.4,86,90,13.42,RU,1610252217
47,Hasaki,35.7333,140.8333,44.01,33,20,10.36,JP,1610252077
48,Pevek,69.7008,170.3133,-23.4,88,97,4.18,RU,1610252220
49,Arrondissement de Troyes,48.3333,4.0833,30.2,74,0,4.61,FR,1610252222
50,Lagoa,39.05,-27.9833,57.34,65,99,10.2,PT,1610252223
51,Tuatapere,-46.1333,167.6833,62.01,75,94,21.99,NZ,1610252224
52,Mahon,39.8885,4.2658,50.0,71,0,9.22,ES,1610252226
53,Muramatsu,37.6833,139.1833,33.8,75,75,20.71,JP,1610252227
54,Cape Town,-33.9258,18.4232,64.99,77,75,19.57,ZA,1610252229
55,Mataura,-46.1927,168.8643,62.01,75,100,21.99,NZ,1610252230
56,Saskylakh,71.9167,114.0833,-24.07,85,100,9.71,RU,1610252231
57,Mwene-Ditu,-7.0,23.45,61.68,97,41,0.13,CD,1610252233
58,Chokurdakh,70.6333,147.9167,-24.14,87,100,3.83,RU,1610252222
59,Arraial do Cabo,-22.9661,-42.0278,76.5,92,4,15.14,BR,1610252235
60,Moree,-29.4667,149.85,86.0,26,0,13.8,AU,1610252237
61,Banda Aceh,5.5577,95.3222,83.32,71,50,10.29,ID,1610252177
62,Tsiroanomandidy,-18.7667,46.0333,69.57,92,100,2.15,MG,1610252239
63,Ucluelet,48.9329,-125.5528,42.01,88,100,7.0,CA,1610252014
64,Vaini,-21.2,-175.2,84.2,79,75,8.05,TO,1610252242
65,George Town,5.4112,100.3354,87.8,58,20,10.36,MY,1610252243
66,Barrow,71.2906,-156.7887,5.0,78,90,2.77,US,1610252244
67,Punta Arenas,-53.15,-70.9167,44.6,81,90,4.61,CL,1610252246
68,Bubaque,11.2833,-15.8333,79.68,57,57,16.11,GW,1610252247
69,Guerrero Negro,27.9769,-114.0611,58.93,81,0,10.96,MX,1610252248
70,Yulara,-25.2406,130.9889,96.8,11,0,6.91,AU,1610252249
71,Kokopo,-4.352,152.2633,85.35,61,95,3.31,PG,1610252251
72,Mar del Plata,-38.0023,-57.5575,64.99,77,0,9.22,AR,1610252252
73,Ribeira Grande,38.5167,-28.7,59.52,73,100,15.61,PT,1610252253
74,Magaria,12.9983,8.9099,67.3,25,0,8.81,NE,1610252255
75,Tavda,58.0425,65.2726,-15.02,90,88,4.29,RU,1610251988
76,Carnarvon,-24.8667,113.6333,87.8,55,2,25.32,AU,1610252186
77,Bani Walid,31.7566,13.9942,65.7,30,3,15.32,LY,1610252259
78,Tuktoyaktuk,69.4541,-133.0374,-4.0,77,40,13.8,CA,1610252261
79,Bredasdorp,-34.5322,20.0403,62.6,72,99,5.75,ZA,1610252262
80,Pangai,-19.8,-174.35,82.4,89,75,10.36,TO,1610252263
81,Yar-Sale,66.8333,70.8333,-18.99,88,86,10.76,RU,1610252264
82,Westport,41.1415,-73.3579,33.8,37,1,12.66,US,1610252266
83,Qaanaaq,77.484,-69.3632,-2.13,75,0,5.35,GL,1610251392
84,Souillac,-20.5167,57.5167,80.6,83,75,9.22,MU,1610252268
85,Lorengau,-2.0226,147.2712,86.09,60,100,5.93,PG,1610252269
86,Kidal,18.4411,1.4078,72.05,20,0,10.54,ML,1610252271
87,Magpet,7.1119,125.1133,87.8,70,40,8.05,PH,1610252272
88,Bintulu,3.1667,113.0333,89.6,74,40,5.75,MY,1610252273
89,Constitución,-35.3333,-72.4167,51.53,81,44,7.09,CL,1610252179
90,Indian Head,38.6001,-77.1622,39.2,48,1,12.66,US,1610252276
91,Krasnosel'kup,65.7,82.4667,-15.93,89,88,9.17,RU,1610252277
92,Arlit,18.7369,7.3853,65.21,26,0,1.41,NE,1610252279
93,Port-Gentil,-0.7193,8.7815,79.99,81,65,9.35,GA,1610252280
94,Totskoye,52.5248,52.7623,29.12,97,100,18.43,RU,1610252281
95,Nemuro,43.3236,145.575,23.0,50,20,2.3,JP,1610252283
96,Shanhecun,44.7,127.2,-0.51,90,44,6.6,CN,1610252284
97,Severo-Kuril'sk,50.6789,156.125,22.53,86,98,19.08,RU,1610252286
98,Northam,51.0333,-4.2167,34.0,95,12,3.85,GB,1610252287
99,Tortolì,39.9256,9.6572,51.8,87,75,8.05,IT,1610252288
100,Cidreira,-30.1811,-50.2056,77.04,80,0,18.37,BR,1610252290
101,Geraldton,-28.7667,114.6,80.6,57,75,20.71,AU,1610252291
102,Tasiilaq,65.6145,-37.6368,17.6,57,90,4.61,GL,1610252292
103,Amapá,1.0,-52.0,71.37,98,100,2.3,BR,1610252294
104,Atuona,-9.8,-139.0333,78.17,78,10,16.73,PF,1610252295
105,Chkalovsk,56.7647,43.2433,21.2,93,90,8.95,RU,1610252001
106,Torbay,47.6666,-52.7314,30.99,93,20,2.3,CA,1610252297
107,Chapais,49.7834,-74.8492,15.8,92,90,2.3,CA,1610252299
108,Portland,45.5234,-122.6762,44.6,65,75,16.11,US,1610251623
109,Amursk,50.2261,136.8994,-8.59,83,81,11.48,RU,1610252301
110,Yellowknife,62.456,-114.3525,8.6,85,1,9.22,CA,1610252302
111,Port Elizabeth,-33.918,25.5701,69.8,78,0,14.97,ZA,1610252304
112,Shache,38.4167,77.2406,17.6,80,0,7.9,CN,1610252305
113,Denton,33.2001,-97.1336,43.0,65,1,3.44,US,1610252030
114,Langsa,4.4683,97.9683,89.22,57,35,0.87,ID,1610252308
115,Ahipara,-35.1667,173.1667,68.65,71,50,10.56,NZ,1610252309
116,Hithadhoo,-0.6,73.0833,81.36,74,100,11.12,MV,1610252310
117,Xuanzhou,30.9525,118.7553,38.91,59,72,5.32,CN,1610252311
118,Kumul,42.8,93.45,14.99,80,35,5.5,CN,1610252313
119,Leningradskiy,69.3833,178.4167,-20.38,85,94,5.75,RU,1610252314
120,Port Moresby,-9.4431,147.1797,89.6,62,40,14.97,PG,1610252315
121,Kalevala,65.2,31.1667,-7.56,91,89,4.0,RU,1610252317
122,Bonavista,48.6499,-53.1147,32.0,100,95,1.14,CA,1610252318
123,Liverpool,53.4106,-2.9779,37.99,87,90,4.61,GB,1610252319
124,Gamba,-2.65,10.0,77.58,87,67,5.5,GA,1610252320
125,Aklavik,68.2191,-135.0107,1.4,85,77,2.3,CA,1610252322
126,Kyshtovka,56.555,76.6271,7.16,95,99,5.1,RU,1610252323
127,Kiryat Gat,31.61,34.7642,57.0,76,0,2.3,IL,1610252324
128,Narsaq,60.9167,-46.05,42.8,39,90,26.46,GL,1610252325
129,Fuerte Olimpo,-21.0415,-57.8738,81.01,63,0,4.63,PY,1610252327
130,Esperance,-33.8667,121.9,71.6,68,90,24.16,AU,1610252328
131,Sergeevka,53.88,67.4158,6.48,95,99,8.61,KZ,1610252329
132,Inhambane,-23.865,35.3833,77.16,79,85,4.34,MZ,1610252331
133,Araouane,18.9048,-3.5265,70.18,21,0,11.54,ML,1610252332
134,Tartagal,-22.5164,-63.8013,70.93,95,100,4.16,AR,1610252333
135,Hokitika,-42.7167,170.9667,62.28,72,78,13.53,NZ,1610252318
136,Burnie,-41.0667,145.9167,71.01,66,41,11.01,AU,1610252086
137,Caravelas,-17.7125,-39.2481,77.11,84,17,8.03,BR,1610252337
138,Plainview,40.7765,-73.4673,34.0,47,1,13.8,US,1610252339
139,Marrakesh,31.6315,-8.0083,46.4,81,75,13.8,MA,1610252340
140,Laguna,38.421,-121.4238,46.0,81,1,4.61,US,1610252168
141,Wamba,8.9333,8.6,69.98,23,53,0.4,NG,1610252343
142,Mahibadhoo,3.7833,72.9667,81.57,72,100,6.71,MV,1610252344
143,Yandyki,45.7691,47.1258,39.13,84,100,6.76,RU,1610252345
144,Dikson,73.5069,80.5464,-2.74,93,100,18.43,RU,1610252346
145,Adrar,20.5022,-10.0711,57.34,44,0,17.05,MR,1610252347
146,Sur,22.5667,59.5289,66.45,37,0,12.71,OM,1610252261
147,Tura,25.5198,90.2201,73.8,41,27,2.91,IN,1610252164
148,Eureka,40.8021,-124.1637,50.0,79,74,3.0,US,1610252351
149,Ust-Kuyga,70.0167,135.6,-25.44,84,99,1.72,RU,1610252353
150,Husavik,66.0449,-17.3389,19.4,63,90,4.61,IS,1610252316
151,Kalach-na-Donu,48.691,43.5264,32.0,93,75,11.18,RU,1610252355
152,Hofn,64.2539,-15.2082,25.63,82,0,10.25,IS,1610252356
153,Berlevåg,70.8578,29.0864,15.91,93,34,18.68,NO,1610252358
154,Verkhniye Sergi,56.6469,59.5556,-5.57,90,100,10.69,RU,1610252359
155,West Wendover,40.7391,-114.0733,35.6,60,90,6.91,US,1610252360
156,Provideniya,64.3833,-173.3,-7.71,82,0,6.06,RU,1610252362
157,Bengkulu,-3.8004,102.2655,84.7,61,97,3.94,ID,1610252363
158,Lakes Entrance,-37.8811,147.981,84.99,60,0,7.0,AU,1610252364
159,Murud,18.3258,72.965,81.73,68,80,3.4,IN,1610252366
160,Khatanga,71.9667,102.5,-31.05,84,22,6.98,RU,1610252367
161,Shrewsbury,52.7101,-2.7521,36.0,93,20,8.05,GB,1610252368
162,Jamestown,42.097,-79.2353,28.99,93,1,5.75,US,1610252067
163,Zhigansk,66.7697,123.3711,-28.82,84,100,6.55,RU,1610252371
164,New Norfolk,-42.7826,147.0587,81.0,24,46,3.0,AU,1610252372
165,Kaitangata,-46.2817,169.8464,60.01,71,88,10.25,NZ,1610252373
166,Port Shepstone,-30.7414,30.455,75.87,75,63,21.09,ZA,1610252374
167,Puerto Ayacucho,5.6639,-67.6236,74.8,85,92,3.06,VE,1610252376
168,Slavsk,55.0425,21.677,26.01,98,99,3.0,RU,1610252377
169,Mut,36.6439,33.4389,47.35,63,2,1.1,TR,1610252302
170,Port Blair,11.6667,92.75,84.2,74,40,4.61,IN,1610252379
171,Touros,-5.1989,-35.4608,78.8,78,40,10.36,BR,1610252381
172,Kadiri,14.1167,78.1667,74.07,74,46,6.62,IN,1610252382
173,Vila Franca do Campo,37.7167,-25.4333,50.0,71,40,3.44,PT,1610252383
174,Kapaa,22.0752,-159.319,73.4,88,75,8.05,US,1610252384
175,Rome,43.2128,-75.4557,21.99,86,1,6.91,US,1610252172
176,Charter Township of Clinton,42.587,-82.9199,28.99,100,1,5.32,US,1610252205
177,Victor Harbor,-35.5667,138.6167,100.99,25,0,12.66,AU,1610252388
178,Saint George,37.1041,-113.5841,44.6,36,1,6.15,US,1610252389
179,Kruisfontein,-34.0033,24.7314,66.99,74,0,1.99,ZA,1610252233
180,Manoel Urbano,-8.8389,-69.2597,72.82,95,81,2.86,BR,1610252392
181,Oranjestad,12.524,-70.027,80.6,74,20,14.97,AW,1610252201
182,Săpânţa,47.9667,23.7,28.4,93,90,2.3,RO,1610252395
183,Shelui,-4.3667,34.2,64.87,88,100,1.88,TZ,1610252396
184,São Miguel do Araguaia,-13.275,-50.1628,73.06,80,100,2.62,BR,1610252397
185,Santa Rosa,14.3122,121.1114,84.2,54,75,12.66,PH,1610252171
186,Vestmannaeyjar,63.4427,-20.2734,27.57,89,32,6.93,IS,1610252400
187,La Providencia,28.7167,-111.5833,59.0,49,0,5.01,MX,1610252402
188,Kremenchuk,49.0973,33.4197,30.67,93,12,9.19,UA,1610252403
189,Alibag,18.6411,72.8792,84.2,70,40,3.44,IN,1610252345
190,Novo Cruzeiro,-17.4681,-41.8753,67.48,98,93,2.01,BR,1610252406
191,Moscow,55.7522,37.6156,19.4,85,100,8.95,RU,1610252301
192,Pareora,-44.4871,171.2132,72.0,81,32,5.01,NZ,1610252408
193,Clyde River,70.4692,-68.5914,5.0,85,90,14.97,CA,1610252410
194,Mananjary,-21.2167,48.3333,77.09,80,41,3.36,MG,1610252411
195,Fortuna,40.5982,-124.1573,52.0,87,90,9.22,US,1610252179
196,Koronowo,53.3137,17.937,34.0,100,90,4.61,PL,1610252414
197,Castro,-24.7911,-50.0119,62.91,96,98,7.16,BR,1610252415
198,Tiksi,71.6872,128.8694,-20.99,87,100,4.76,RU,1610252417
199,Bāfq,31.6128,55.4107,35.76,62,0,1.28,IR,1610252418
200,At-Bashi,41.1702,75.8106,0.55,48,0,0.43,KG,1610252419
201,Baruun-Urt,46.6806,113.2792,-2.69,86,77,11.05,MN,1610252421
202,Klyuchi,52.2667,79.1667,11.93,90,100,15.84,RU,1610252422
203,Agde,43.3108,3.4758,37.99,70,90,6.91,FR,1610252423
204,Gainesville,29.6516,-82.3248,41.0,81,90,3.44,US,1610252425
205,Grand Gaube,-20.0064,57.6608,82.0,77,2,7.0,MU,1610252427
206,Avera,33.194,-82.5271,35.01,100,1,5.75,US,1610252428
207,Coquimbo,-29.9533,-71.3436,57.2,82,20,5.75,CL,1610252412
208,Allāpalli,19.4167,80.0667,77.0,47,100,3.24,IN,1610252314
209,Yuanping,38.7153,112.7575,18.32,66,100,4.65,CN,1610252429
210,Kirensk,57.7853,108.1119,-3.96,89,100,7.65,RU,1610252433
211,Sunland Park,31.7965,-106.58,43.0,48,1,6.91,US,1610252435
212,Soyo,-6.1349,12.3689,76.14,83,97,6.06,AO,1610252436
213,Alice Springs,-23.7,133.8833,91.4,22,0,9.22,AU,1610252437
214,St-Jean-Port-Joli,47.2171,-70.2658,25.0,85,87,5.75,CA,1610252439
215,Yeppoon,-23.1333,150.7333,84.2,54,90,13.8,AU,1610252440
216,Fairview,40.8126,-73.999,35.6,51,1,9.22,US,1610252441
217,Lüderitz,-26.6481,15.1594,67.59,59,25,17.05,NA,1610252442
218,Ketchikan,55.3422,-131.6461,39.2,93,90,17.27,US,1610252284
219,Rawson,-43.3002,-65.1023,69.12,29,96,26.91,AR,1610252445
220,Finnsnes,69.2296,17.9811,5.0,85,75,1.14,NO,1610252446
221,Andenes,69.3143,16.1194,32.0,55,100,23.02,NO,1610252447
222,Kyrylivka,46.3759,35.3675,34.56,85,98,7.05,UA,1610252449
223,Ratnagiri,16.9833,73.3,81.7,70,81,5.39,IN,1610252450
224,Elk City,35.412,-99.4043,33.8,86,40,5.75,US,1610252451
225,Shenkursk,62.1091,42.896,3.2,94,90,4.52,RU,1610252453
226,Palmer,42.1584,-72.3287,30.2,43,20,12.66,US,1610252450
227,Richards Bay,-28.783,32.0377,71.24,83,0,6.71,ZA,1610252456
228,Voyvozh,62.892,54.9635,-1.77,91,0,7.96,RU,1610252457
229,Arrecife,28.963,-13.5477,59.0,72,1,8.05,ES,1610252458
230,Makkah al Mukarramah,21.4267,39.8261,71.92,67,35,1.59,SA,1610252281
231,Kristinestad,62.2743,21.376,23.34,98,100,15.19,FI,1610252461
232,Seymchan,62.8833,152.4333,-25.35,84,97,0.6,RU,1610252462
233,Williams Lake,52.1415,-122.1445,30.2,69,90,25.32,CA,1610252464
234,Goderich,43.7501,-81.7165,32.0,80,44,6.91,CA,1610252465
235,Río Gallegos,-51.6226,-69.2181,46.4,76,0,20.71,AR,1610252466
236,North Platte,41.1239,-100.7654,33.8,69,90,8.05,US,1610252468
237,Muros,42.7762,-9.0603,46.0,72,91,5.99,ES,1610252469
238,Mineiros,-17.5694,-52.5511,71.49,79,73,3.09,BR,1610252471
239,Nikol'sk,53.7189,46.0712,26.76,98,100,7.31,RU,1610252472
240,Iqaluit,63.7506,-68.5145,12.2,79,90,2.3,CA,1610252473
241,Bassila,9.0081,1.6654,71.6,68,0,2.73,BJ,1610252474
242,Gushikawa,26.3544,127.8686,62.6,48,75,9.22,JP,1610252476
243,Monrovia,6.3005,-10.7969,78.3,85,19,5.59,LR,1610252477
244,Katsuura,35.1333,140.3,44.01,33,20,4.61,JP,1610252478
245,Barra Patuca,15.8,-84.2833,74.53,88,5,10.11,HN,1610252480
246,Boyolangu,-8.1181,111.8935,85.37,67,100,7.85,ID,1610252481
247,Repnoye,51.5921,43.1861,24.19,98,79,12.97,RU,1610252482
248,Port Alfred,-33.5906,26.891,70.0,83,13,5.01,ZA,1610252484
249,Riviere-au-Renard,48.9957,-64.3971,26.6,59,1,10.36,CA,1610252485
250,Baghdad,33.3406,44.4009,39.2,65,17,3.44,IQ,1610252487
251,Bay Roberts,47.5999,-53.2648,30.0,1,18,5.91,CA,1610252488
252,Petropavlovskoye,52.0712,84.107,12.43,90,100,3.76,RU,1610252490
253,Ulladulla,-35.35,150.4667,82.99,47,24,12.66,AU,1610252491
254,Half Moon Bay,37.4636,-122.4286,51.8,66,20,3.67,US,1610252492
255,Norman Wells,65.282,-126.8329,-7.6,84,20,3.44,CA,1610252494
256,Kaeo,-35.1,173.7833,66.43,86,74,2.24,NZ,1610252495
257,Swift Current,50.2834,-107.8014,17.6,93,1,17.27,CA,1610252496
258,Chitose,42.8194,141.6522,24.8,46,20,12.66,JP,1610252345
259,Normandin,48.8333,-72.5321,17.6,86,0,14.97,CA,1610252499
260,Cherskiy,68.75,161.3,-27.33,85,99,3.53,RU,1610252501
261,Coahuayana Viejo,18.7333,-103.6833,71.6,73,1,2.68,MX,1610252502
262,Roald,62.5833,6.1333,34.0,86,75,18.41,NO,1610252503
263,Codrington,-38.2667,141.9667,75.22,57,77,12.41,AU,1610252504
264,Caucayá,-0.1934,-74.7819,70.59,97,40,2.3,CO,1610252506
265,Batemans Bay,-35.7167,150.1833,82.99,44,6,1.01,AU,1610252461
266,Pisco,-13.7,-76.2167,68.0,88,0,8.05,PE,1610252508
267,Severobaykal'sk,55.65,109.3167,4.28,86,100,2.39,RU,1610252313
268,Tran,42.8353,22.6517,36.0,10,99,1.34,BG,1610252511
269,Opuwo,-18.0607,13.84,64.13,76,81,2.08,NA,1610252512
270,Saqqez,36.2499,46.2735,27.57,68,95,1.97,IR,1610252513
271,Aykhal,66.0,111.5,-32.33,81,97,6.76,RU,1610252514
272,Anadyr,64.75,177.4833,-31.0,68,0,8.95,RU,1610252516
273,Loandjili,-4.7561,11.8578,77.23,87,100,7.09,CG,1610252517
274,Ponta do Sol,32.6667,-17.1,52.0,75,65,5.99,PT,1610252518
275,Kibala,9.1104,18.3463,62.6,72,0,4.74,TD,1610252520
276,Denham Springs,30.4869,-90.9562,41.0,65,1,9.22,US,1610252340
277,Ballina,-28.8667,153.5667,80.01,53,40,14.97,AU,1610252522
278,Iquique,-20.2208,-70.1431,69.8,64,0,8.05,CL,1610252524
279,Ternate,0.8,127.4,84.92,68,91,5.84,ID,1610252525
280,Kismayo,-0.3582,42.5454,77.47,78,24,18.92,SO,1610252526
281,Gazojak,41.1875,61.4036,31.08,78,100,14.16,TM,1610252528
282,Biabou,13.2,-61.1333,79.5,77,5,17.92,VC,1610252529
283,Mandalgovi,45.7625,106.2708,2.73,81,100,9.8,MN,1610252472
284,Hong Kong,22.2855,114.1577,57.0,36,99,1.01,HK,1610252325
285,Shimoda,34.6667,138.95,46.4,39,20,6.91,JP,1610252533
286,Avarua,-21.2078,-159.775,82.4,61,20,11.5,CK,1610252534
287,Balkanabat,39.5108,54.3671,40.78,58,100,5.64,TM,1610252536
288,Hambantota,6.1241,81.1185,78.8,94,75,2.3,LK,1610252537
289,Necochea,-38.5473,-58.7368,66.99,81,0,20.65,AR,1610252269
290,Kiunga,-6.1219,141.2906,84.4,78,100,3.89,PG,1610252539
291,Kirkuk,35.4681,44.3922,46.18,50,71,1.97,IQ,1610252541
292,Kembé,4.6228,21.8865,66.47,74,24,0.58,CF,1610252542
293,Carauari,-4.8828,-66.8958,72.37,98,94,2.53,BR,1610252295
294,Taitung City,22.7583,121.1444,62.6,48,75,6.91,TW,1610252545
295,Vila Velha,-20.3297,-40.2925,78.01,88,20,6.91,BR,1610252547
296,Mocuba,-16.8392,36.9856,75.61,93,48,1.16,MZ,1610252548
297,Weligama,5.9667,80.4167,78.98,80,99,5.48,LK,1610252549
298,São João da Barra,-21.6403,-41.0511,76.86,87,99,15.41,BR,1610252551
299,Kazachinskoye,57.6953,93.2761,0.23,91,100,7.27,RU,1610252552
300,Kovdor,67.5662,30.4758,-5.46,91,49,3.38,RU,1610252553
301,Gimli,50.6336,-96.9907,14.0,85,3,3.44,CA,1610252555
302,Marzuq,14.4,46.4667,50.27,47,6,2.66,YE,1610252556
303,Al Bardīyah,31.7561,25.0865,66.02,48,2,12.91,LY,1610252557
304,Lebu,-37.6167,-73.65,54.21,90,22,8.12,CL,1610252554
305,Vostok,46.4856,135.8833,-7.53,83,100,5.01,RU,1610252560
306,Saint Anthony,45.0205,-93.218,19.4,93,90,3.44,US,1610252561
307,Matara,5.9485,80.5353,79.66,78,99,3.89,LK,1610252562
308,Selma,36.5708,-119.6121,42.8,100,1,4.61,US,1610252357
309,Yaan,7.3833,8.5667,73.65,86,24,4.94,NG,1610252565
310,Belozërskoye,55.8214,65.5842,-6.02,91,82,6.6,RU,1610252566
311,Khovd,48.0056,91.6419,-1.66,79,0,2.06,MN,1610252567
312,Coxim,-18.5067,-54.76,81.09,61,9,1.88,BR,1610252569
313,Orapa,-21.2833,25.3667,73.72,75,87,6.26,BW,1610252570
314,Clarksville,36.5298,-87.3595,33.8,69,90,4.61,US,1610252572
315,Oodweyne,9.4092,45.064,61.14,46,0,15.23,SO,1610252573
316,Rio Verde de Mato Grosso,-18.9181,-54.8442,80.85,54,6,3.65,BR,1610252574
317,College,64.8569,-147.8028,8.6,78,75,3.44,US,1610252575
318,Severo-Yeniseyskiy,60.3725,93.0408,-14.08,90,99,3.49,RU,1610252577
319,Chicama,-7.8447,-79.1469,70.23,78,86,4.72,PE,1610252578
320,Bambous Virieux,-20.3428,57.7575,82.0,83,75,9.22,MU,1610252579
321,Dhidhdhoo,6.8833,73.1,82.4,74,97,8.39,MV,1610252581
322,Fairbanks,64.8378,-147.7164,8.6,78,75,3.44,US,1610252431
323,Cayenne,4.9333,-52.3333,75.2,100,75,8.05,GF,1610252583
324,Bathsheba,13.2167,-59.5167,78.8,78,40,21.85,BB,1610252585
325,Saint Petersburg,59.8944,30.2642,6.01,85,0,2.24,RU,1610252534
326,Santa Cruz,30.4202,-9.5982,50.0,100,40,9.22,MA,1610252587
327,Shimanovsk,52.0,127.7,-3.08,85,77,6.35,RU,1610252589
328,Hortobágy,47.5828,21.1511,24.8,100,90,4.61,HU,1610252590
329,Camalú,30.85,-116.0667,56.52,79,13,1.43,MX,1610252591
330,Port-Cartier,50.0334,-66.8654,23.0,74,0,11.5,CA,1610252593
331,Pangody,65.85,74.4859,-24.18,86,26,10.89,RU,1610252594
332,Boa Vista,2.8197,-60.6733,77.0,88,75,3.44,BR,1610252414
333,El Salvador,13.8333,-88.9167,78.8,57,0,8.05,SV,1610252509
334,Harwich,51.9419,1.2844,28.99,84,0,4.0,GB,1610252598
335,Prince Rupert,54.3161,-130.3201,42.8,81,90,10.36,CA,1610252599
336,Mombetsu,44.3525,143.3525,24.8,42,75,6.91,JP,1610252600
337,Mount Gambier,-37.8333,140.7667,93.2,29,89,18.41,AU,1610252602
338,Namatanai,-3.6667,152.4333,86.68,64,96,5.57,PG,1610252603
339,Gijang,35.2442,129.2139,35.6,30,0,10.36,KR,1610252317
340,Lamballe,48.4676,-2.5144,35.01,10,6,6.26,FR,1610252606
341,Tiznit Province,29.5833,-9.5,46.92,85,65,14.52,MA,1610252607
342,Vyazemskiy,47.5378,134.7525,-3.87,85,100,7.99,RU,1610252608
343,Susanville,40.4163,-120.653,32.0,74,1,6.91,US,1610252609
344,Cabo San Lucas,22.8909,-109.9124,62.6,51,1,3.91,MX,1610252441
345,Buraidah,26.326,43.975,50.0,100,20,2.3,SA,1610252612
346,Puerto Palomas,31.7667,-107.6167,39.2,56,1,9.22,MX,1610252613
347,Dingle,10.9995,122.6711,75.67,89,100,15.43,PH,1610252614
348,Camacha,33.0833,-16.3333,57.2,72,40,21.85,PT,1610252616
349,Timon,-5.0942,-42.8367,80.6,78,75,5.75,BR,1610252617
350,Nome,64.5011,-165.4064,-9.4,70,1,6.91,US,1610252618
351,Talnakh,69.4865,88.3972,-22.34,75,0,3.94,RU,1610252619
352,Takoradze,4.8845,-1.7554,78.08,89,14,7.85,GH,1610252621
353,Paita,-5.0892,-81.1144,70.68,78,73,9.19,PE,1610252622
354,Simpang,-1.2667,104.0833,74.59,96,100,6.4,ID,1610252623
355,Chākia,26.4167,85.05,69.69,59,100,7.18,IN,1610252624
356,Vestmanna,62.1564,-7.1664,30.2,100,75,3.44,FO,1610252626
357,Sovetskiy,61.3614,63.5842,-15.81,89,91,4.85,RU,1610252627
358,Mayo,38.8876,-76.5119,39.99,65,1,6.91,US,1610252629
359,Santa Maria,-29.6842,-53.8069,75.2,73,40,1.14,BR,1610252580
360,Campina Verde,-19.5356,-49.4864,75.81,68,80,3.02,BR,1610252632
361,Waingapu,-9.6567,120.2641,87.17,64,33,4.38,ID,1610252633
362,Asău,46.4333,26.4,30.2,100,40,1.14,RO,1610252634
363,Srednekolymsk,67.45,153.6833,-30.23,84,91,5.26,RU,1610252635
364,Fare,-16.7,-151.0167,81.12,72,55,11.41,PF,1610252637
365,Sinnamary,5.3833,-52.95,77.56,87,96,12.91,GF,1610252638
366,Yumen,40.2833,97.2,15.76,74,47,37.31,CN,1610252639
367,Longyearbyen,78.2186,15.6401,28.4,74,20,16.11,SJ,1610252498
368,Ubari,26.5921,12.7805,64.31,28,37,15.68,LY,1610252642
369,Saint-Pierre,-21.3393,55.4781,80.6,54,90,2.3,RE,1610252643
370,Faya,18.3851,42.4509,46.4,61,40,1.66,SA,1610252644
371,Saldanha,-33.0117,17.9442,62.6,82,44,6.91,ZA,1610252423
372,Stroud,51.75,-2.2,32.0,96,0,3.24,GB,1610252647
373,Mokrousovo,55.8103,66.7653,-7.73,91,51,5.99,RU,1610252648
374,Denpasar,-8.65,115.2167,87.8,70,40,4.61,ID,1610252076
375,Douglas,41.3,-96.167,28.0,93,90,6.91,US,1610252651
376,Makakilo City,21.3469,-158.0858,78.8,65,90,3.44,US,1610252652
377,Vrangel',42.7297,133.0839,9.14,76,0,12.06,RU,1610252653
378,Preobrazheniye,42.9019,133.9064,8.85,72,0,7.05,RU,1610252654
379,Forsytheganj,52.6333,29.7333,19.42,98,84,5.88,BY,1610252656
380,Myaundzha,63.0494,147.1858,-22.47,84,94,1.92,RU,1610252657
381,Formosa,-26.1775,-58.1781,75.2,100,0,3.44,AR,1610252658
382,Kabare,-2.4683,28.8242,58.77,82,100,2.17,CD,1610252660
383,Kalianget,-7.05,113.9333,85.17,68,84,4.63,ID,1610252661
384,Nālūt,30.3333,10.85,66.88,27,0,21.47,LY,1610252662
385,Evensk,61.95,159.2333,-1.44,80,46,11.14,RU,1610252664
386,Aden,12.7794,45.0367,74.98,71,24,19.69,YE,1610252430
387,Kirakira,-10.4544,161.9205,86.41,68,91,8.16,SB,1610252666
388,Sahuaripa,29.05,-109.2333,52.34,39,0,4.61,MX,1610252667
389,Dukat,62.55,155.55,-22.72,84,95,3.87,RU,1610252669
390,Sarlat-la-Canéda,44.889,1.2166,25.0,89,61,5.73,FR,1610252670
391,Nhulunbuy,-12.2333,136.7667,89.6,66,75,14.97,AU,1610252671
392,Verkhoyansk,67.5447,133.385,-20.33,85,100,3.11,RU,1610252673
393,Barão de Melgaço,-16.1944,-55.9675,78.8,89,0,3.44,BR,1610252674
394,Ilulissat,69.2167,-51.1,19.4,49,75,16.11,GL,1610252675
395,San Patricio,28.017,-97.5169,53.6,76,90,16.11,US,1610252588
396,Quatre Cocos,-20.2078,57.7625,82.0,83,75,9.22,MU,1610252678
397,Blagoyevo,63.3667,47.9167,-3.06,91,90,5.68,RU,1610252679
398,Dauriya,49.9333,116.8667,-1.03,89,76,8.1,RU,1610252680
399,Del Rio,29.3627,-100.8968,44.6,93,90,8.05,US,1610252682
400,San Juan,-31.5375,-68.5364,81.75,42,1,4.99,AR,1610252413
401,Province of Palermo,37.8167,13.5833,66.0,57,79,5.99,IT,1610252479
402,Igra,57.5558,53.0547,6.28,94,100,12.97,RU,1610252685
403,Miraflores,19.2167,-98.8083,59.0,55,75,9.22,MX,1610252687
404,Atar,20.5169,-13.0499,57.18,49,0,15.82,MR,1610252688
405,Poum,-20.2333,164.0167,83.26,81,100,13.53,NC,1610252689
406,Wabag,-5.4781,143.7021,66.67,78,99,3.78,PG,1610252691
407,Turaif,31.6725,38.6637,37.4,81,0,5.75,SA,1610252692
408,Raul Soares,-20.1022,-42.4519,72.07,92,100,1.3,BR,1610252693
409,Tautira,-17.7333,-149.15,82.4,69,75,13.8,PF,1610252694
410,Vysokogornyy,50.1167,139.15,-15.86,84,96,4.97,RU,1610252696
411,Yima,34.7381,111.8839,32.2,59,99,13.73,CN,1610252409
412,Pangnirtung,66.1451,-65.7125,5.49,78,100,0.78,CA,1610252698
413,Kutum,14.2,24.6667,53.65,39,0,10.02,SD,1610252700
414,Pandan Niog,6.2282,120.5631,82.54,72,12,3.42,PH,1610252702
415,Latur,18.4,76.5833,74.57,59,89,6.04,IN,1610252703
416,Saint-Augustin,51.226,-58.6502,28.94,91,99,11.56,CA,1610252704
417,Ningxiang,37.34,111.2052,14.72,66,100,11.36,CN,1610252705
418,Zaragoza,41.6561,-0.8773,37.0,100,90,10.36,ES,1610252707
419,Niono,14.2526,-5.993,68.41,23,0,4.59,ML,1610252708
420,Zaysan,47.4667,84.8667,-2.51,87,0,1.1,KZ,1610252709
421,Khani,41.9563,42.9566,37.4,70,0,4.61,GE,1610252711
422,Kloulklubed,7.0419,134.2556,84.2,74,75,9.22,PW,1610252712
423,Vardø,70.3705,31.1107,20.44,94,100,17.65,NO,1610252713
424,Maceió,-9.6658,-35.7353,73.4,94,20,4.61,BR,1610252699
425,Tigil',57.8,158.6667,5.81,94,100,3.04,RU,1610252716
426,Aseri,59.4506,26.8675,16.18,94,61,5.28,EE,1610252717
427,Charlestown,-32.95,151.6667,77.0,69,4,9.53,AU,1610252520
428,Meulaboh,4.1363,96.1285,83.01,68,77,2.8,ID,1610252720
429,Coelho Neto,-4.2567,-43.0128,73.74,92,100,2.98,BR,1610252612
430,Huilong,31.8111,121.655,39.0,30,75,1.99,CN,1610252722
431,Makokou,0.5738,12.8642,69.46,95,2,3.2,GA,1610252724
432,Nantucket,41.2835,-70.0995,35.6,80,90,13.8,US,1610252658
433,Padang,-0.9492,100.3543,84.2,70,40,1.14,ID,1610252643
434,Fort Nelson,58.8053,-122.7002,6.8,85,75,1.19,CA,1610252524
435,Gisborne,-38.6533,178.0042,76.53,54,72,10.51,NZ,1610252729
436,Mabaruma,8.2,-59.7833,73.6,96,68,4.85,GY,1610252730
437,Sémbé,1.6481,14.5806,70.25,77,8,4.27,CG,1610252731
438,Sambava,-14.2667,50.1667,78.08,77,0,4.03,MG,1610252732
439,Kangaatsiaq,68.3065,-53.4641,15.69,84,100,10.58,GL,1610252734
440,Tigre,-34.426,-58.5796,75.0,68,0,10.36,AR,1610252735
441,Mt. Pleasant,32.7941,-79.8626,43.0,93,1,3.44,US,1610252736
442,Rocky Mountain House,52.3668,-114.9188,10.4,85,91,3.44,CA,1610252738
443,Saint-Leu,-21.15,55.2833,80.6,54,90,2.3,RE,1610252740
444,Griffith,41.5284,-87.4237,23.0,100,1,1.52,US,1610252741
445,Isangel,-19.55,169.2667,87.8,74,75,5.75,VU,1610252742
446,Skibbereen,51.55,-9.2667,33.8,80,20,6.91,IE,1610252743
447,Arrondissement de Saint-Denis,48.9167,2.3333,30.99,100,90,4.61,FR,1610252745
448,Shakiso,5.75,38.9167,55.17,59,21,3.15,ET,1610252746
449,Ōmagari,39.45,140.4833,24.8,80,75,11.5,JP,1610252748
450,Ventspils,57.3894,21.5606,24.8,93,0,5.75,LV,1610252749
451,Bria,6.5423,21.9863,63.57,38,84,2.77,CF,1610252750
452,Kahului,20.8947,-156.47,75.2,73,75,6.91,US,1610252659
453,Luau,-10.7073,22.2247,61.34,100,55,3.06,AO,1610252753
454,Nizhniy Kuranakh,58.8353,125.4869,-11.42,86,100,9.08,RU,1610252755
455,Port Lincoln,-34.7333,135.8667,84.99,28,72,16.4,AU,1610252756
456,Nishihara,26.1842,127.7558,62.6,39,75,16.11,JP,1610252757
457,Grand-Lahou,5.1367,-5.0242,78.55,87,2,10.25,CI,1610252758
458,Bilibino,68.0546,166.4372,-27.71,82,33,0.38,RU,1610252760
459,Ishigaki,24.3448,124.1572,59.0,58,75,11.5,JP,1610252761
460,Mangan,27.5167,88.5333,67.03,37,86,4.88,IN,1610252762
461,Abū Zabad,12.35,29.25,62.42,28,9,11.63,SD,1610252764
462,Verkh-Usugli,52.7,115.1667,1.02,83,100,2.15,RU,1610252765
463,Canary Islands,28.0,-15.5,59.0,63,20,9.22,ES,1610252766
464,Tomohon,1.3346,124.8392,89.6,58,40,8.05,ID,1610252767
465,Pitimbu,-7.4706,-34.8086,75.2,88,0,9.95,BR,1610252769
466,Udachny,66.4167,112.4,-31.86,82,100,5.66,RU,1610252770
467,Sfântu Gheorghe,45.8667,25.7833,26.01,90,100,0.34,RO,1610252771
468,Manta,-0.95,-80.7333,77.0,83,40,4.61,EC,1610252481
469,Temir,49.1414,57.13,22.75,94,100,12.48,KZ,1610252774
470,Harper,4.375,-7.7169,78.12,88,3,8.16,LR,1610252617
471,Bibiani,6.4635,-2.3194,70.48,100,28,1.5,GH,1610252776
472,Baldev,27.4167,77.8167,60.64,44,0,9.86,IN,1610252778
473,Datong,40.0936,113.2914,9.91,73,100,2.77,CN,1610252779
474,Jalu,29.0331,21.5482,61.36,42,0,7.81,LY,1610252780
475,Grindavik,63.8424,-22.4338,23.0,74,75,6.91,IS,1610252781
476,Belūsovka,50.1339,82.5239,6.8,72,75,11.18,KZ,1610252783
477,Grand-Santi,4.25,-54.3833,71.89,97,100,2.19,GF,1610252784
478,Obihiro,42.9172,143.2044,19.4,45,20,2.3,JP,1610252785
479,Coos Bay,43.3665,-124.2179,51.8,71,40,10.36,US,1610252787
480,Cartagena,10.3997,-75.5144,78.8,100,40,4.61,CO,1610252788
481,Berdigestyakh,62.0989,126.6992,-28.35,83,100,4.52,RU,1610252789
482,Haines Junction,60.7522,-137.5108,17.6,93,100,1.14,CA,1610252791
483,Henties Bay,-22.116,14.2845,68.0,80,100,1.01,NA,1610252792
484,Paramonga,-10.6667,-77.8333,70.68,85,100,5.73,PE,1610252793
485,Okaihau,-35.3167,173.7833,62.44,99,97,0.96,NZ,1610252795
486,Abrau-Dyurso,44.69,37.59,35.6,87,100,11.18,RU,1610252796
487,Dawlatabad,36.4141,64.9053,29.68,72,0,1.81,AF,1610252797
488,Hailar,49.2,119.7,-5.42,88,1,3.33,CN,1610252798
489,Beyneu,45.3167,55.2,26.64,91,41,11.45,KZ,1610252800
490,São Filipe,14.8961,-24.4956,71.69,72,73,15.23,CV,1610252801
491,Chālūs,36.655,51.4204,35.6,80,0,4.41,IR,1610252802
492,Itarema,-2.9248,-39.9167,79.09,78,24,13.49,BR,1610252803
493,Taclobo,12.3074,122.586,78.46,81,100,18.9,PH,1610252805
494,Loralai,30.3705,68.598,41.45,42,0,4.05,PK,1610252806
495,Inuvik,68.3499,-133.7218,1.4,85,1,2.3,CA,1610252708
496,Itupiranga,-5.1347,-49.3267,73.72,93,100,3.09,BR,1610252809
497,Yelizovo,53.1873,158.3805,19.4,42,45,2.24,RU,1610252810
498,Tijucas,-27.2414,-48.6336,78.8,78,20,4.61,BR,1610252752
499,Ambilobe,-13.2,49.05,76.69,90,68,2.28,MG,1610252813
500,Maturin,9.75,-63.1767,71.56,98,97,4.74,VE,1610252814
501,Churāchāndpur,24.3333,93.6667,55.4,58,20,2.3,IN,1610252815
502,Dongsheng,39.8161,109.9776,11.73,59,100,14.58,CN,1610252817
503,Port Hardy,50.6996,-127.4199,42.8,93,90,33.38,CA,1610252818
504,Jesolo,45.5331,12.6448,39.99,65,0,12.66,IT,1610252819
505,Antofagasta,-23.65,-70.4,64.4,88,75,10.36,CL,1610252821
506,Llanes,43.4198,-4.7549,46.99,70,100,16.42,ES,1610252822
507,Riyadh,24.6877,46.7219,48.2,87,0,2.3,SA,1610252614
508,Olutanga,7.3106,122.8464,82.51,75,18,4.34,PH,1610252825
509,Troitsko-Pechorsk,62.7084,56.1964,-5.21,90,0,4.99,RU,1610252826
510,Ancud,-41.8697,-73.8203,53.01,82,90,10.36,CL,1610252745
511,Mongu,-15.2484,23.1274,66.45,97,100,3.98,ZM,1610252829
512,Buala,-8.145,159.5921,83.55,77,100,11.61,SB,1610252830
513,Macas,-2.3167,-78.1167,65.84,79,48,2.91,EC,1610252831
514,Hirara,24.8,125.2833,62.6,55,75,11.5,JP,1610252832
515,Kananga,-5.8958,22.4178,64.87,98,24,0.83,CD,1610252834
516,Yuli,9.6989,10.2744,69.48,24,100,6.87,NG,1610252835
517,Belmont,37.5202,-122.2758,51.8,66,20,2.82,US,1610252637
518,Romanovskaya,47.5426,42.0285,33.06,92,100,9.06,RU,1610252838
519,Kupang,-10.1667,123.5833,86.0,84,20,8.05,ID,1610252650
520,Hermiston,45.8404,-119.2895,39.2,87,90,2.84,US,1610252616
521,Trofors,65.5333,13.4063,33.8,69,40,19.57,NO,1610252842
522,Plettenberg Bay,-34.0527,23.3716,64.81,77,14,4.16,ZA,1610252843
523,Oriximiná,-1.7656,-55.8661,74.82,90,47,1.66,BR,1610252615
524,Sechura,-5.5569,-80.8222,72.1,73,40,9.78,PE,1610252750
525,Coihueco,-36.6167,-71.8333,55.4,71,0,2.3,CL,1610252724
526,Egvekinot,66.3167,-179.1667,-21.19,85,23,10.42,RU,1610252849
527,Campbell River,50.0163,-125.2446,37.0,100,90,11.5,CA,1610252850
528,Vanavara,60.34,102.2797,-8.64,90,100,5.41,RU,1610252851
529,Honiara,-9.4333,159.95,86.32,68,83,6.69,SB,1610252852
530,Severnoye,56.3491,78.3619,5.29,95,100,6.26,RU,1610252854
531,Sault Ste. Marie,46.5168,-84.3333,32.0,86,90,2.28,CA,1610252704
532,Iranshahr,27.2025,60.6848,39.2,13,0,6.91,IR,1610252856
533,Moose Factory,51.2585,-80.6094,23.0,100,90,2.3,CA,1610252858
534,Pahrump,36.2083,-115.9839,39.0,38,24,2.06,US,1610252577
535,George Town,5.4112,100.3354,88.0,58,20,10.36,MY,1610252637
536,Pathalgaon,22.5667,83.4667,76.66,46,10,3.31,IN,1610252861
537,Vilyuysk,63.7553,121.6247,-20.13,87,100,5.57,RU,1610252863
538,La Ronge,55.1001,-105.2842,17.6,86,79,2.3,CA,1610252726
539,Bhandāra,21.1667,79.65,75.2,60,20,3.44,IN,1610252865
540,Brake (Unterweser),53.3333,8.4833,33.01,86,93,4.0,DE,1610252867
541,Salalah,17.0151,54.0924,66.2,37,0,9.22,OM,1610252868
542,Havøysund,70.9963,24.6622,21.2,63,9,24.16,NO,1610252869
543,Bethel,41.3712,-73.414,30.2,55,1,10.36,US,1610252871
544,Oakland,42.6667,-83.3999,26.01,80,1,5.75,US,1610252692
545,Bilma,18.6853,12.9164,66.97,25,0,8.05,NE,1610252873
546,Toba,34.4833,136.85,42.01,50,29,7.0,JP,1610252874
547,Pamekasan,-7.1568,113.4746,85.68,68,44,4.05,ID,1610252876
548,Presidente Médici,-11.1753,-61.9014,75.4,81,90,1.77,BR,1610252877
549,Katherine,-14.4667,132.2667,95.0,46,40,4.61,AU,1610252878
550,Emerald,-23.5333,148.1667,79.0,78,90,14.97,AU,1610252880
551,Dyurtyuli,55.4911,54.8688,20.98,97,100,15.9,RU,1610252881
552,Koygorodok,60.445,50.9968,5.9,94,87,7.02,RU,1610252882
553,Alberton,46.8168,-64.0654,32.0,80,100,19.57,CA,1610252884
554,Zhezkazgan,47.8043,67.7144,-3.03,87,81,8.32,KZ,1610252885
555,Fereydūnkenār,36.6864,52.5225,32.0,74,0,2.3,IR,1610252688
556,Livingstonia,-10.606,34.1063,63.79,95,100,2.55,MW,1610252887
557,Corner Brook,48.9667,-57.9484,33.8,93,90,3.44,CA,1610252889
558,San Quintín,30.4833,-115.95,57.11,79,0,2.91,MX,1610252890
559,Butembo,0.15,29.2833,57.79,93,92,2.46,CD,1610252891
560,Makueni Boma,-1.8041,37.6203,60.87,98,100,2.59,KE,1610252892
561,São José da Coroa Grande,-8.8978,-35.1478,77.43,80,81,9.4,BR,1610252894
562,Poconé,-16.2567,-56.6228,75.58,87,97,0.89,BR,1610252766
563,Petropavlovsk-Kamchatskiy,53.0452,158.6483,19.4,42,9,2.24,RU,1610252609
564,Tilichiki,60.4667,166.1,-18.06,86,13,12.06,RU,1610252898
565,Mariental,-24.6333,17.9667,75.16,36,98,11.43,NA,1610252899
566,Yagodnoye,62.55,149.6667,-20.16,84,100,1.05,RU,1610252900
567,Guisijan,11.0932,122.0461,80.69,75,100,12.8,PH,1610252901
568,Chernoistochinsk,57.7364,59.8719,-12.51,89,100,6.08,RU,1610252903
569,Venice of the Philippines,4.6628,119.3928,82.67,70,26,2.73,PH,1610252891
570,Bāneh,35.9975,45.8853,29.57,72,91,1.88,IR,1610252905
571,Balabac,7.9868,117.0645,82.94,79,77,22.1,PH,1610252907
572,Ostrovnoy,68.0531,39.5131,4.73,92,88,11.48,RU,1610252908
573,Macamic,48.7502,-78.9996,14.0,92,90,3.44,CA,1610252909
574,Bukama,-9.2,25.85,68.23,96,100,0.51,CD,1610252769
575,San Cristobal,7.7669,-72.225,64.02,87,67,1.63,VE,1610252912
576,Deputatsky,69.3,139.9,-24.66,88,96,2.01,RU,1610252913
577,Korla,41.7597,86.1469,18.77,80,0,3.38,CN,1610252914
578,Shar,49.5886,81.0453,3.78,86,100,20.96,KZ,1610252916
579,Dedovichi,57.5517,29.9502,5.76,95,91,3.89,RU,1610252917
580,Payo,-3.7508,103.6372,81.28,72,100,3.51,ID,1610252918
581,Morant Bay,17.8815,-76.4093,78.8,73,20,6.91,JM,1610252920
582,Naze,28.3667,129.4833,51.8,76,75,10.36,JP,1610252921
583,Samarai,-10.6167,150.6667,85.23,73,100,11.25,PG,1610252923
584,Manokwari,-0.8667,134.0833,83.7,69,100,2.51,ID,1610252924
585,Nago,26.5881,127.9761,62.6,48,75,9.22,JP,1610252925
586,Cotacachi,0.3,-78.2667,55.4,94,75,2.3,EC,1610252927
587,Port Hedland,-20.3167,118.5667,102.2,35,3,10.36,AU,1610252928
588,Santa Marta,11.2408,-74.199,84.0,68,100,18.99,CO,1610252929
